[{"key":"Ys","name":"YEBES40M","longitude":-3.0868620759,"latitude":40.5246653286},{"key":"Ft","name":"FORTLEZA","longitude":-38.4258584493,"latitude":-3.8778592095},{"key":"Kk","name":"KOKEE","longitude":-159.6650977733,"latitude":22.1266380757},{"key":"Is","name":"ISHIOKA","longitude":140.2189570783,"latitude":36.2091902806},{"key":"Yg","name":"YARRA12M","longitude":115.3456267222,"latitude":-29.0471453614},{"key":"Sv","name":"SVETLOE","longitude":29.7819396669,"latitude":60.5323449323},{"key":"Ht","name":"HART15M","longitude":27.684269005,"latitude":-25.8897353358},{"key":"Ma","name":"MATERA","longitude":16.7040159131,"latitude":40.649523696},{"key":"Wz","name":"WETTZELL","longitude":12.8774504134,"latitude":49.1450076444},{"key":"Wn","name":"WETTZ13N","longitude":12.8777011112,"latitude":49.1439128056},{"key":"Ny","name":"NYALES20","longitude":11.8696920989,"latitude":78.9291100763}]